[
  {"team_key": "lsu-tigers-football", "stadium_name": "Tiger Stadium", "lat": 30.412, "lon": -91.1838, "city": "Baton Rouge", "country": "United States"},
  {"team_key": "lsu-tigers-basketball", "stadium_name": "Pete Maravich Assembly Center", "lat": 30.4127, "lon": -91.1833, "city": "Baton Rouge", "country": "United States"},
  {"team_key": "alabama-crimson-tide-football", "stadium_name": "Bryant-Denny Stadium", "lat": 33.2082, "lon": -87.5504, "city": "Tuscaloosa", "country": "United States"},
  {"team_key": "ohio-state-buckeyes-football", "stadium_name": "Ohio Stadium", "lat": 40.0018, "lon": -83.0197, "city": "Columbus", "country": "United States"},
  {"team_key": "boston-celtics", "stadium_name": "TD Garden", "lat": 42.3662, "lon": -71.0621, "city": "Boston", "country": "United States"},
  {"team_key": "los-angeles-lakers", "stadium_name": "Crypto.com Arena", "lat": 34.043, "lon": -118.2673, "city": "Los Angeles", "country": "United States"},
  {"team_key": "new-york-yankees", "stadium_name": "Yankee Stadium", "lat": 40.8296, "lon": -73.9262, "city": "New York", "country": "United States"},
  {"team_key": "dallas-cowboys", "stadium_name": "AT&T Stadium", "lat": 32.7473, "lon": -97.0945, "city": "Arlington", "country": "United States"},
  {"team_key": "green-bay-packers", "stadium_name": "Lambeau Field", "lat": 44.5013, "lon": -88.0622, "city": "Green Bay", "country": "United States"},
  {"team_key": "chicago-bears", "stadium_name": "Soldier Field", "lat": 41.8623, "lon": -87.6167, "city": "Chicago", "country": "United States"},
  {"team_key": "new-orleans-saints", "stadium_name": "Caesars Superdome", "lat": 29.9511, "lon": -90.0810, "city": "New Orleans", "country": "United States"},
  {"team_key": "boston-bruins", "stadium_name": "TD Garden", "lat": 42.3662, "lon": -71.0621, "city": "Boston", "country": "United States"},
  {"team_key": "toronto-maple-leafs", "stadium_name": "Scotiabank Arena", "lat": 43.6435, "lon": -79.3791, "city": "Toronto", "country": "Canada"},
  {"team_key": "manchester-united", "stadium_name": "Old Trafford", "lat": 53.4631, "lon": -2.2913, "city": "Manchester", "country": "United Kingdom"},
  {"team_key": "manchester-city", "stadium_name": "Etihad Stadium", "lat": 53.4831, "lon": -2.2004, "city": "Manchester", "country": "United Kingdom"},
  {"team_key": "liverpool-fc", "stadium_name": "Anfield", "lat": 53.4308, "lon": -2.9609, "city": "Liverpool", "country": "United Kingdom"},
  {"team_key": "arsenal", "stadium_name": "Emirates Stadium", "lat": 51.5549, "lon": -0.1084, "city": "London", "country": "United Kingdom"},
  {"team_key": "chelsea", "stadium_name": "Stamford Bridge", "lat": 51.4817, "lon": -0.1910, "city": "London", "country": "United Kingdom"},
  {"team_key": "tottenham", "stadium_name": "Tottenham Hotspur Stadium", "lat": 51.6043, "lon": -0.0664, "city": "London", "country": "United Kingdom"},
  {"team_key": "barcelona", "stadium_name": "Spotify Camp Nou", "lat": 41.3809, "lon": 2.1228, "city": "Barcelona", "country": "Spain"},
  {"team_key": "real-madrid", "stadium_name": "Santiago Bernabéu", "lat": 40.453, "lon": -3.6883, "city": "Madrid", "country": "Spain"},
  {"team_key": "atletico-madrid", "stadium_name": "Cívitas Metropolitano", "lat": 40.4363, "lon": -3.5997, "city": "Madrid", "country": "Spain"},
  {"team_key": "bayern-munich", "stadium_name": "Allianz Arena", "lat": 48.2188, "lon": 11.6247, "city": "Munich", "country": "Germany"},
  {"team_key": "borussia-dortmund", "stadium_name": "Signal Iduna Park", "lat": 51.4926, "lon": 7.4519, "city": "Dortmund", "country": "Germany"},
  {"team_key": "juventus", "stadium_name": "Allianz Stadium", "lat": 45.1097, "lon": 7.6413, "city": "Turin", "country": "Italy"},
  {"team_key": "ac-milan", "stadium_name": "San Siro", "lat": 45.4781, "lon": 9.1240, "city": "Milan", "country": "Italy"},
  {"team_key": "inter-milan", "stadium_name": "San Siro", "lat": 45.4781, "lon": 9.1240, "city": "Milan", "country": "Italy"},
  {"team_key": "paris-saint-germain", "stadium_name": "Parc des Princes", "lat": 48.8414, "lon": 2.2531, "city": "Paris", "country": "France"},
  {"team_key": "new-york-knicks", "stadium_name": "Madison Square Garden", "lat": 40.7505, "lon": -73.9934, "city": "New York", "country": "United States"},
  {"team_key": "golden-state-warriors", "stadium_name": "Chase Center", "lat": 37.7680, "lon": -122.3877, "city": "San Francisco", "country": "United States"},
  {"team_key": "miami-heat", "stadium_name": "Kaseya Center", "lat": 25.7814, "lon": -80.1870, "city": "Miami", "country": "United States"},
  {"team_key": "chicago-bulls", "stadium_name": "United Center", "lat": 41.8807, "lon": -87.6742, "city": "Chicago", "country": "United States"},
  {"team_key": "philadelphia-76ers", "stadium_name": "Wells Fargo Center", "lat": 39.9012, "lon": -75.1720, "city": "Philadelphia", "country": "United States"},
  {"team_key": "milwaukee-bucks", "stadium_name": "Fiserv Forum", "lat": 43.0436, "lon": -87.9172, "city": "Milwaukee", "country": "United States"},
  {"team_key": "denver-nuggets", "stadium_name": "Ball Arena", "lat": 39.7561, "lon": -105.0073, "city": "Denver", "country": "United States"},
  {"team_key": "kansas-city-chiefs", "stadium_name": "GEHA Field at Arrowhead Stadium", "lat": 39.0489, "lon": -94.4839, "city": "Kansas City", "country": "United States"},
  {"team_key": "buffalo-bills", "stadium_name": "Highmark Stadium", "lat": 42.7738, "lon": -78.7870, "city": "Orchard Park", "country": "United States"},
  {"team_key": "san-francisco-49ers", "stadium_name": "Levi's Stadium", "lat": 37.4030, "lon": -121.9700, "city": "Santa Clara", "country": "United States"},
  {"team_key": "philadelphia-eagles", "stadium_name": "Lincoln Financial Field", "lat": 39.9008, "lon": -75.1675, "city": "Philadelphia", "country": "United States"},
  {"team_key": "detroit-red-wings", "stadium_name": "Little Caesars Arena", "lat": 42.3410, "lon": -83.0550, "city": "Detroit", "country": "United States"},
  {"team_key": "chicago-blackhawks", "stadium_name": "United Center", "lat": 41.8807, "lon": -87.6742, "city": "Chicago", "country": "United States"},
  {"team_key": "new-york-rangers", "stadium_name": "Madison Square Garden", "lat": 40.7505, "lon": -73.9934, "city": "New York", "country": "United States"},
  {"team_key": "auburn-tigers-football", "stadium_name": "Jordan-Hare Stadium", "lat": 32.6025, "lon": -85.4897, "city": "Auburn", "country": "United States"},
  {"team_key": "auburn-tigers-basketball", "stadium_name": "Neville Arena", "lat": 32.6014, "lon": -85.4932, "city": "Auburn", "country": "United States"},
  {"team_key": "georgia-bulldogs-football", "stadium_name": "Sanford Stadium", "lat": 33.9490, "lon": -83.3735, "city": "Athens", "country": "United States"},
  {"team_key": "texas-longhorns-football", "stadium_name": "Darrell K Royal-Texas Memorial Stadium", "lat": 30.2836, "lon": -97.7325, "city": "Austin", "country": "United States"},
  {"team_key": "michigan-wolverines-football", "stadium_name": "Michigan Stadium", "lat": 42.2658, "lon": -83.7495, "city": "Ann Arbor", "country": "United States"},
  {"team_key": "clemson-tigers-football", "stadium_name": "Memorial Stadium", "lat": 34.6789, "lon": -82.8403, "city": "Clemson", "country": "United States"}
]
